legacy_county_fips,legacy_county_name,planning_region_fips,planning_region_name,planning_town_name,pous_city_name,pous_tracked_customers_2019q1,pilot_customer_density,pilot_within_county_relative_rate,planning_cousub_geoid,gazetteer_name,gazetteer_land_area_sq_m,gazetteer_lat,gazetteer_lon,bridge_status,bridge_note
09001,Fairfield,09120,Greater Bridgeport Planning Region,Bridgeport,Bridgeport,60475.0,1453.4939964749376,0.4365241367778956,0912008070,Bridgeport town,41606639,41.187393,-73.195757,matched,
09001,Fairfield,09120,Greater Bridgeport Planning Region,Easton,Easton,2964.0,41.73114649735873,0.5949979747111229,0912023890,Easton town,71026086,41.264945,-73.300479,matched,
09001,Fairfield,09120,Greater Bridgeport Planning Region,Fairfield,Fairfield,24168.0,312.0554181913176,1.5131054051355493,0912026620,Fairfield town,77447782,41.17594,-73.272046,matched,
09001,Fairfield,09120,Greater Bridgeport Planning Region,Fairfield,Southport,1.0,,0.0,0912026620,Fairfield town,77447782,41.17594,-73.272046,pous_city_alias,PoUS city/cell alias; mapped to Fairfield town for planning-region bridge.
09001,Fairfield,09120,Greater Bridgeport Planning Region,Monroe,Monroe,7948.0,117.70900946654125,3.0507254064288407,0912048620,Monroe town,67522444,41.339236,-73.222828,matched,
09001,Fairfield,09120,Greater Bridgeport Planning Region,Stratford,Stratford,23623.0,521.757748692287,0.7736401928365586,0912074190,Stratford town,45275801,41.205688,-73.127986,matched,
09001,Fairfield,09120,Greater Bridgeport Planning Region,Trumbull,Trumbull,13954.0,231.8359429580572,0.3982938396969828,0912077200,Trumbull town,60189114,41.272891,-73.211899,matched,
09001,Fairfield,09140,Naugatuck Valley Planning Region,Shelton,Shelton,18447.5,232.52668034890334,1.211498509550186,0914068170,Shelton town,79334982,41.304577,-73.139215,matched,
09001,Fairfield,09190,Western Connecticut Planning Region,Bethel,Bethel,8843.0,201.35164951014602,0.9592560398912141,0919004720,Bethel town,43918190,41.369778,-73.389503,matched,
09001,Fairfield,09190,Western Connecticut Planning Region,Brookfield,Brookfield,8395.0,164.23520312226478,0.4668044630407775,0919008980,Brookfield town,51115716,41.470402,-73.39476,matched,
09001,Fairfield,09190,Western Connecticut Planning Region,Danbury,Danbury,37236.0,342.06879876628875,1.0859165909930424,0919018500,Danbury town,108855295,41.398741,-73.478103,matched,
09001,Fairfield,09190,Western Connecticut Planning Region,Darien,Darien,8084.0,246.6552643019168,1.0923386336938874,0919018850,Darien town,32774488,41.05215,-73.479714,matched,
09001,Fairfield,09190,Western Connecticut Planning Region,Greenwich,Greenwich,28166.0,227.8845363440479,0.7435760690684224,0919033620,Greenwich town,123597680,41.045366,-73.634018,matched,
09001,Fairfield,09190,Western Connecticut Planning Region,New Canaan,New Canaan,8459.0,147.15378588297838,2.6697297748174926,0919050580,New Canaan town,57484080,41.160393,-73.500124,matched,
09001,Fairfield,09190,Western Connecticut Planning Region,New Fairfield,New Fairfield,6097.0,115.27706190476542,0.8765542682359235,0919050860,New Fairfield town,52889967,41.480318,-73.486863,matched,
09001,Fairfield,09190,Western Connecticut Planning Region,Newtown,Newtown,11401.0,76.5187022755619,3.548381637685046,0919052980,Newtown town,148996254,41.399503,-73.293982,matched,
09001,Fairfield,09190,Western Connecticut Planning Region,Norwalk,Norwalk,31357.0,529.0067865107638,0.97672282243675,0919056060,Norwalk town,59275232,41.092739,-73.419796,matched,
09001,Fairfield,09190,Western Connecticut Planning Region,Redding,Redding,3830.0,46.97821350391078,1.2353763787786354,0919063480,Redding town,81527153,41.305415,-73.392584,matched,
09001,Fairfield,09190,Western Connecticut Planning Region,Ridgefield,Ridgefield,10925.0,122.26462830808775,1.1218668099543547,0919063970,Ridgefield town,89355361,41.317675,-73.499837,matched,
09001,Fairfield,09190,Western Connecticut Planning Region,Sherman,Sherman,1988.0,35.02614504397138,3.972541563475984,0919068310,Sherman town,56757602,41.579418,-73.49769,matched,
09001,Fairfield,09190,Western Connecticut Planning Region,Stamford,Stamford,60264.0,618.3758219075992,0.5003638710459312,0919073070,Stamford town,97455298,41.079611,-73.54608,matched,
09001,Fairfield,09190,Western Connecticut Planning Region,Weston,Weston,3868.0,75.54122121172493,1.726041453213768,0919083430,Weston town,51203832,41.227413,-73.367061,matched,
09001,Fairfield,09190,Western Connecticut Planning Region,Westport,Westport,12570.0,243.15619762203684,1.5784872515114012,0919083500,Westport town,51695166,41.120831,-73.343464,matched,
09001,Fairfield,09190,Western Connecticut Planning Region,Wilton,Wilton,7545.0,108.75401184468843,0.3008538245171716,0919086370,Wilton town,69376751,41.211277,-73.440977,matched,
09003,Hartford,09110,Capitol Planning Region,Avon,Avon,8702.0,145.07543664297106,2.279420192598072,0911002060,Avon town,59982587,41.787159,-72.852046,matched,
09003,Hartford,09110,Capitol Planning Region,Berlin,Berlin,9821.0,144.11424495720837,0.8189733750269905,0911004300,Berlin town,68147323,41.605451,-72.778497,matched,
09003,Hartford,09110,Capitol Planning Region,Bloomfield,Bloomfield,10601.0,156.90711840128859,2.4949974472667704,0911005910,Bloomfield town,67562263,41.843772,-72.741002,matched,
09003,Hartford,09110,Capitol Planning Region,Canton,Canton,5004.0,78.5847076326151,2.977495939984223,0911012270,Canton town,63676511,41.858726,-72.910862,matched,
09003,Hartford,09110,Capitol Planning Region,East Granby,East Granby,2648.0,58.27041610094337,4.59657186431391,0911022070,East Granby town,45443300,41.929719,-72.745378,matched,
09003,Hartford,09110,Capitol Planning Region,East Hartford,East Hartford,23223.0,497.93824022026183,0.7573537291859674,0911022630,East Hartford town,46638314,41.760695,-72.607646,matched,
09003,Hartford,09110,Capitol Planning Region,East Windsor,East Windsor,6254.0,91.98546553161643,0.7219238074797402,0911024800,East Windsor town,67989002,41.904009,-72.564473,matched,
09003,Hartford,09110,Capitol Planning Region,Enfield,Enfield,19403.0,224.85063911270782,0.3092785490782945,0911025990,Enfield town,86292839,41.983993,-72.555553,matched,
09003,Hartford,09110,Capitol Planning Region,Farmington,Farmington,12767.0,176.66776612957196,4.33800582485356,0911027600,Farmington town,72265588,41.729774,-72.842031,matched,
09003,Hartford,09110,Capitol Planning Region,Glastonbury,Glastonbury,16030.0,120.74566527016233,2.220356687771331,0911031240,Glastonbury town,132758389,41.691883,-72.552173,matched,
09003,Hartford,09110,Capitol Planning Region,Granby,Granby,4843.0,45.90621145828517,0.5577074942862846,0911032640,Granby town,105497706,41.97148,-72.830159,matched,
09003,Hartford,09110,Capitol Planning Region,Hartford,Hartford,59069.0,1312.2756366671792,0.3740530645278883,0911037070,Hartford town,45012647,41.765933,-72.681579,matched,
09003,Hartford,09110,Capitol Planning Region,Manchester,Manchester,29149.0,410.41562745113833,0.9350784552914719,0911044700,Manchester town,71023124,41.77524,-72.524434,matched,
09003,Hartford,09110,Capitol Planning Region,Marlborough,Marlborough,2646.0,43.7505801581562,4.554867607678321,0911045820,Marlborough town,60479198,41.636439,-72.454002,matched,
09003,Hartford,09110,Capitol Planning Region,New Britain,New Britain,34606.0,997.4553733404614,0.18374076970685854,0911050440,New Britain town,34694284,41.676555,-72.786161,matched,
09003,Hartford,09110,Capitol Planning Region,Newington,Newington,14823.0,435.5337990740933,1.3540908058673164,0911052140,Newington town,34034098,41.686993,-72.730839,matched,
09003,Hartford,09110,Capitol Planning Region,Plainville,Plainville,9442.0,375.57978787259947,0.11927803073299151,0911060120,Plainville town,25139798,41.673992,-72.854434,matched,
09003,Hartford,09110,Capitol Planning Region,Rocky Hill,Rocky Hill,10194.0,292.360092187785,0.01536583239374047,0911065370,Rocky Hill town,34867960,41.656624,-72.661779,matched,
09003,Hartford,09110,Capitol Planning Region,Simsbury,Simsbury,10989.0,125.04079556941625,2.8927777615401626,0911068940,Simsbury town,87883318,41.87253,-72.828438,matched,
09003,Hartford,09110,Capitol Planning Region,South Windsor,South Windsor,12148.0,167.17059583161742,0.5705811330500888,0911071390,South Windsor town,72668282,41.83809,-72.577836,matched,
09003,Hartford,09110,Capitol Planning Region,Southington,Southington,20046.0,215.74835798612952,1.2967770911106062,0911070550,Southington town,92913801,41.60716,-72.87876,matched,
09003,Hartford,09110,Capitol Planning Region,Suffield,Suffield,6298.0,57.502688373940664,1.8231085927458044,0911074540,Suffield town,109525314,41.999915,-72.678751,matched,
09003,Hartford,09110,Capitol Planning Region,West Hartford,West Hartford,28711.0,507.618889052078,0.7391699746892825,0911082590,West Hartford town,56560149,41.766568,-72.754944,matched,
09003,Hartford,09110,Capitol Planning Region,Wethersfield,Wethersfield,12463.0,391.1490775434921,0.11987008313527549,0911084900,Wethersfield town,31862532,41.702484,-72.669301,matched,
09003,Hartford,09110,Capitol Planning Region,Windsor,Windsor,13404.0,175.34588231120316,1.165266179541308,0911087000,Windsor town,76443198,41.871037,-72.675082,matched,
09003,Hartford,09110,Capitol Planning Region,Windsor Locks,Windsor Locks,6408.0,274.17853087116333,0.16377007228407944,0911087070,Windsor Locks town,23371633,41.92779,-72.651616,matched,
09003,Hartford,09140,Naugatuck Valley Planning Region,Bristol,Bristol,29798.0,435.8099721681555,0.21623451411633518,0914008490,Bristol town,68373837,41.681578,-72.940749,matched,
09003,Hartford,09160,Northwest Hills Planning Region,Burlington,Burlington,3909.0,50.813926265600195,2.3220567150727196,0916010100,Burlington town,76927730,41.749079,-72.948657,matched,
09003,Hartford,09160,Northwest Hills Planning Region,Hartland,Hartland,874.0,10.227464784785061,1.0,0916037140,Hartland town,85456173,42.001205,-72.954027,matched,
09005,Litchfield,09140,Naugatuck Valley Planning Region,Bethlehem,Bethlehem,1916.0,38.18167770889687,0.7986505069722301,0914004930,Bethlehem town,50181137,41.635759,-73.211422,matched,
09005,Litchfield,09140,Naugatuck Valley Planning Region,Plymouth,Plymouth,5776.0,101.91606615559594,0.023239150072876313,0914060750,Plymouth town,56674087,41.666392,-73.026516,matched,
09005,Litchfield,09140,Naugatuck Valley Planning Region,Thomaston,Thomaston,3847.0,123.8967728288419,0.2726849857107464,0914075730,Thomaston town,31050042,41.664944,-73.096325,matched,
09005,Litchfield,09140,Naugatuck Valley Planning Region,Watertown,Watertown,10199.0,135.73508620888137,0.7287374836705062,0914080490,Watertown town,75139010,41.617245,-73.114362,matched,
09005,Litchfield,09140,Naugatuck Valley Planning Region,Woodbury,Woodbury,5180.0,55.00779029246304,5.177310185239923,0914087910,Woodbury town,94168480,41.561632,-73.206096,matched,
09005,Litchfield,09160,Northwest Hills Planning Region,Barkhamsted,Barkhamsted,1781.0,18.96764547811332,2.7506706626079795,0916002760,Barkhamsted town,93896736,41.935708,-72.972921,matched,
09005,Litchfield,09160,Northwest Hills Planning Region,Canaan,Canaan,1307.0,15.332717326457425,0.5327300326513219,0916010940,Canaan town,85242555,41.962959,-73.307143,matched,
09005,Litchfield,09160,Northwest Hills Planning Region,Colebrook,Colebrook,823.0,10.070682486114022,0.3453170030756326,0916016050,Colebrook town,81722366,42.005797,-73.064184,matched,
09005,Litchfield,09160,Northwest Hills Planning Region,Cornwall,Cornwall,1203.0,10.084039614969406,0.32025416527469974,0916017240,Cornwall town,119297429,41.84806,-73.330561,matched,
09005,Litchfield,09160,Northwest Hills Planning Region,Goshen,Goshen,1919.0,16.981573682875652,0.15184459391064895,0916032290,Goshen town,113004839,41.849537,-73.234002,matched,
09005,Litchfield,09160,Northwest Hills Planning Region,Harwinton,Harwinton,2512.0,31.494655612711224,3.413562078122575,0916037280,Harwinton town,79759564,41.761345,-73.060443,matched,
09005,Litchfield,09160,Northwest Hills Planning Region,Kent,Kent,2146.0,17.057039184136222,0.6387271072920844,0916040290,Kent town,125813160,41.729782,-73.45414,matched,
09005,Litchfield,09160,Northwest Hills Planning Region,Litchfield,Litchfield,4715.0,32.450980058828016,0.6346657569123694,0916043370,Litchfield town,145296074,41.740937,-73.192751,matched,
09005,Litchfield,09160,Northwest Hills Planning Region,Morris,Morris,1410.0,31.360079299632012,0.6554896037464114,0916049460,Morris town,44961621,41.694323,-73.209998,matched,
09005,Litchfield,09160,Northwest Hills Planning Region,New Hartford,New Hartford,3307.0,34.474055901344364,0.8846190610865602,0916051350,New Hartford town,95927210,41.841053,-72.998664,matched,
09005,Litchfield,09160,Northwest Hills Planning Region,Norfolk,Norfolk,1120.0,9.537035104557454,3.748947663845914,0916053470,Norfolk town,117436917,41.969773,-73.178439,matched,
09005,Litchfield,09160,Northwest Hills Planning Region,North Canaan,North Canaan,1471.0,29.31633334101949,0.4256389385475957,0916054030,North Canaan town,50176807,42.020594,-73.296246,matched,
09005,Litchfield,09160,Northwest Hills Planning Region,Roxbury,Roxbury,1351.0,19.83760097004841,1.4499032667918494,0916065930,Roxbury town,68102993,41.555532,-73.296026,matched,
09005,Litchfield,09160,Northwest Hills Planning Region,Salisbury,Salisbury,2989.0,20.1632988403533,0.9516598448587301,0916066420,Salisbury town,148239632,41.986226,-73.425273,matched,
09005,Litchfield,09160,Northwest Hills Planning Region,Sharon,Sharon,2170.0,14.257460766605268,0.21498213433279764,0916067960,Sharon town,152201015,41.860763,-73.449215,matched,
09005,Litchfield,09160,Northwest Hills Planning Region,Torrington,Torrington,18721.0,181.78893047671173,0.3900946856042131,0916076570,Torrington town,102982068,41.8342,-73.13147,matched,
09005,Litchfield,09160,Northwest Hills Planning Region,Warren,Warren,830.0,12.182209453570662,0.05517577028784434,0916079510,Warren town,68132140,41.735855,-73.342831,matched,
09005,Litchfield,09160,Northwest Hills Planning Region,Washington,Washington,2625.0,26.62210515031753,1.029540036821986,0916079720,Washington town,98602270,41.656175,-73.310175,matched,
09005,Litchfield,09160,Northwest Hills Planning Region,Winchester,Winchester,6151.0,73.04048851226653,1.232804587974463,0916086440,Winchester town,84213566,41.927213,-73.109336,matched,
09005,Litchfield,09190,Western Connecticut Planning Region,Bridgewater,Bridgewater,964.0,22.69379168012639,5.6504387546467925,0919008210,Bridgewater town,42478578,41.520294,-73.361093,matched,
09005,Litchfield,09190,Western Connecticut Planning Region,New Milford,New Milford,13957.0,87.5341641634417,0.4947924824945194,0919052630,New Milford town,159446316,41.601267,-73.422807,matched,
09007,Middlesex,09130,Lower Connecticut River Valley Planning Region,Chester,Chester,2084.0,50.12854580384022,0.09497597092569436,0913014300,Chester town,41573119,41.411728,-72.487146,matched,
09007,Middlesex,09130,Lower Connecticut River Valley Planning Region,Clinton,Clinton,7112.0,169.43235847865657,0.5105576447260802,0913015350,Clinton town,41975453,41.29513,-72.530039,matched,
09007,Middlesex,09130,Lower Connecticut River Valley Planning Region,Cromwell,Cromwell,7133.0,221.1702021445417,0.5149297960829635,0913018080,Cromwell town,32251180,41.616609,-72.66156,matched,
09007,Middlesex,09130,Lower Connecticut River Valley Planning Region,Deep River,Deep River,2462.0,70.33931204153025,0.11712124436210389,0913019130,Deep River town,35001764,41.367819,-72.477442,matched,
09007,Middlesex,09130,Lower Connecticut River Valley Planning Region,Durham,Durham,3129.0,51.063233124172626,4.056445908461103,0913020810,Durham town,61276966,41.468922,-72.684525,matched,
09007,Middlesex,09130,Lower Connecticut River Valley Planning Region,East Haddam,East Haddam,4939.0,35.14901992412836,1.0485782843720428,0913022280,East Haddam town,140516009,41.476661,-72.39212,matched,
09007,Middlesex,09130,Lower Connecticut River Valley Planning Region,East Hampton,East Hampton,6270.0,67.90445624239548,0.18107358694458908,0913022490,East Hampton town,92335619,41.567737,-72.509544,matched,
09007,Middlesex,09130,Lower Connecticut River Valley Planning Region,Essex,Essex,4016.0,149.05997199335346,0.07884055097288846,0913026270,Essex town,26942176,41.349862,-72.413383,matched,
09007,Middlesex,09130,Lower Connecticut River Valley Planning Region,Haddam,Haddam,3953.0,34.73758352398435,2.9350663728893074,0913035230,Haddam town,113796056,41.480809,-72.548636,matched,
09007,Middlesex,09130,Lower Connecticut River Valley Planning Region,Killingworth,Killingworth,2878.0,31.451292575452474,1.0609777678430696,0913040710,Killingworth town,91506573,41.374419,-72.578328,matched,
09007,Middlesex,09130,Lower Connecticut River Valley Planning Region,Middlefield,Middlefield,2204.0,67.27800517173719,1.9440700103618593,0913047080,Middlefield town,32759592,41.514163,-72.717844,matched,
09007,Middlesex,09130,Lower Connecticut River Valley Planning Region,Middletown,Middletown,23082.0,217.27128222898534,1.1260152313496752,0913047360,Middletown town,106235853,41.548611,-72.656784,matched,
09007,Middlesex,09130,Lower Connecticut River Valley Planning Region,Old Saybrook,Old Saybrook,7128.0,182.7545073163593,0.494294511360694,0913057320,Old Saybrook town,39003142,41.293504,-72.383594,matched,
09007,Middlesex,09130,Lower Connecticut River Valley Planning Region,Portland,Portland,4656.0,76.9888038502868,0.44240953564123486,0913061800,Portland town,60476326,41.598834,-72.589071,matched,
09007,Middlesex,09130,Lower Connecticut River Valley Planning Region,Westbrook,Westbrook,4658.0,114.04387383878094,1.7337311283002446,0913081680,Westbrook town,40843930,41.303695,-72.478017,matched,
09009,New Haven,09140,Naugatuck Valley Planning Region,Ansonia,Ansonia,8555.0,548.7981993004122,0.13206427151885922,0914001220,Ansonia town,15588608,41.344249,-73.069825,matched,
09009,New Haven,09140,Naugatuck Valley Planning Region,Beacon Falls,Beacon Falls,2806.0,111.99099474264939,0.9549273190798916,0914003250,Beacon Falls town,25055586,41.443685,-73.051925,matched,
09009,New Haven,09140,Naugatuck Valley Planning Region,Cheshire,Cheshire,11575.0,136.10347269157015,1.9509510857800203,0914014160,Cheshire town,85045589,41.511827,-72.903617,matched,
09009,New Haven,09140,Naugatuck Valley Planning Region,Derby,Derby,6393.0,488.2342271820377,0.11723196361195587,0914019550,Derby town,13094125,41.326124,-73.082574,matched,
09009,New Haven,09140,Naugatuck Valley Planning Region,Middlebury,Middlebury,3485.0,75.77979639306,1.4496954456264324,0914046940,Middlebury town,45988511,41.524691,-73.123016,matched,
09009,New Haven,09140,Naugatuck Valley Planning Region,Naugatuck,Naugatuck,14450.0,340.52044343349803,4.4137106445371375,0914049950,Naugatuck town,42435044,41.487785,-73.051551,matched,
09009,New Haven,09140,Naugatuck Valley Planning Region,Oxford,Oxford,5613.0,66.18350155788865,1.784411459387825,0914058300,Oxford town,84809656,41.444033,-73.148235,matched,
09009,New Haven,09140,Naugatuck Valley Planning Region,Prospect,Prospect,4149.0,112.80144718628901,1.3493169596915622,0914062290,Prospect town,36781443,41.499247,-72.975634,matched,
09009,New Haven,09140,Naugatuck Valley Planning Region,Seymour,Seymour,7631.0,202.94715113634714,1.8219733089383092,0914067610,Seymour town,37600922,41.385466,-73.083641,matched,
09009,New Haven,09140,Naugatuck Valley Planning Region,Southbury,Southbury,9962.0,98.61082470879616,0.7705692489210177,0914069640,Southbury town,101023392,41.475986,-73.229692,matched,
09009,New Haven,09140,Naugatuck Valley Planning Region,Waterbury,Waterbury,51722.0,699.312593648762,0.45984296493902693,0914080070,Waterbury town,73961202,41.5585,-73.036685,matched,
09009,New Haven,09140,Naugatuck Valley Planning Region,Wolcott,Wolcott,6989.0,132.3656518462906,0.1505156892718054,0914087560,Wolcott town,52800707,41.59503,-72.968514,matched,
09009,New Haven,09170,South Central Connecticut Planning Region,Bethany,Bethany,2353.0,43.12304772222248,11.082811793530889,0917004580,Bethany town,54564789,41.422964,-72.994187,matched,
09009,New Haven,09170,South Central Connecticut Planning Region,Branford,Branford,16593.0,293.3262264228859,0.3129769823743222,0917007310,Branford town,56568416,41.279949,-72.78595,matched,
09009,New Haven,09170,South Central Connecticut Planning Region,East Haven,East Haven,13315.0,418.08770170612127,0.15712469171132792,0917022910,East Haven town,31847385,41.293453,-72.858994,matched,
09009,New Haven,09170,South Central Connecticut Planning Region,Guilford,Guilford,11043.0,90.56588472925422,0.555969339234529,0917034950,Guilford town,121933331,41.339032,-72.70609,matched,
09009,New Haven,09170,South Central Connecticut Planning Region,Hamden,Hamden,26952.0,318.90631321264283,1.1965004505317605,0917035650,Hamden town,84513849,41.397329,-72.922226,matched,
09009,New Haven,09170,South Central Connecticut Planning Region,Madison,Madison,9184.0,98.09648387338238,0.47229520630230576,0917044560,Madison town,93622112,41.344479,-72.624543,matched,
09009,New Haven,09170,South Central Connecticut Planning Region,Meriden,Meriden,27834.0,452.8311316668744,0.31697648191026734,0917046520,Meriden town,61466622,41.536777,-72.794543,matched,
09009,New Haven,09170,South Central Connecticut Planning Region,Milford,Milford,27328.0,475.7325232882281,0.7690831647342966,0917047535,Milford town,57444044,41.225086,-73.06111,matched,
09009,New Haven,09170,South Central Connecticut Planning Region,New Haven,New Haven,58827.0,1215.2562660573121,0.7954538090049411,0917052070,New Haven town,48407074,41.310809,-72.924953,matched,
09009,New Haven,09170,South Central Connecticut Planning Region,North Branford,North Branford,3491.0,54.44186005457099,0.08157827279534687,0917053890,North Branford town,64123452,41.362257,-72.783462,matched,
09009,New Haven,09170,South Central Connecticut Planning Region,North Haven,North Haven,11648.0,215.8048362441851,1.8039425564151967,0917054870,North Haven town,53974694,41.381465,-72.856371,matched,
09009,New Haven,09170,South Central Connecticut Planning Region,Orange,Orange,6396.0,143.73432934002392,0.4690908084039187,0917057600,Orange town,44498764,41.284951,-73.024637,matched,
09009,New Haven,09170,South Central Connecticut Planning Region,Wallingford,Wallingford,9.0,0.08872794559699253,0.0,0917078740,Wallingford town,101433657,41.458657,-72.804516,matched,
09009,New Haven,09170,South Central Connecticut Planning Region,West Haven,West Haven,24872.0,893.306447462271,1.0059774939103792,0917082870,West Haven town,27842629,41.272121,-72.967497,matched,
09009,New Haven,09170,South Central Connecticut Planning Region,Woodbridge,Woodbridge,3751.0,76.98729167841265,4.501116740830628,0917087700,Woodbridge town,48722327,41.363536,-73.003891,matched,
09011,New London,09130,Lower Connecticut River Valley Planning Region,Lyme,Lyme,1338.0,16.247021956089473,4.897564650961298,0913044210,Lyme town,82353554,41.398615,-72.331546,matched,
09011,New London,09130,Lower Connecticut River Valley Planning Region,Old Lyme,Old Lyme,5495.0,92.19024630885018,1.7761440348968447,0913057040,Old Lyme town,59605004,41.31232,-72.305742,matched,
09011,New London,09150,Northeastern Connecticut Planning Region,Voluntown,Voluntown,1321.0,13.089056852898084,2.0665567579986703,0915078600,Voluntown town,100924002,41.579192,-71.831228,matched,
09011,New London,09180,Southeastern Connecticut Planning Region,Bozrah,,0,,,0918006820,Bozrah town,51708109,41.545058,-72.175228,gazetteer_only,True CT municipality present in Census gazetteer but absent from PoUS pilot feature table.
09011,New London,09180,Southeastern Connecticut Planning Region,Colchester,Colchester,7233.0,57.05760216976974,0.5361427028563859,0918015910,Colchester town,126766631,41.557271,-72.344247,matched,
09011,New London,09180,Southeastern Connecticut Planning Region,East Lyme,East Lyme,10079.0,114.39775608330412,0.8661709859094093,0918023400,East Lyme town,88104875,41.356068,-72.229841,matched,
09011,New London,09180,Southeastern Connecticut Planning Region,Franklin,Franklin,1020.0,19.980904915202707,2.284843711168013,0918029910,Franklin town,51048739,41.621212,-72.142609,matched,
09011,New London,09180,Southeastern Connecticut Planning Region,Griswold,Griswold,3407.0,37.89886806637595,1.9963987229387643,0918033900,Griswold town,89897144,41.584772,-71.921091,matched,
09011,New London,09180,Southeastern Connecticut Planning Region,Groton,Groton,5594.0,69.4271069736935,0.19254518830308232,0918034250,Groton town,80573716,41.347718,-72.031345,matched,
09011,New London,09180,Southeastern Connecticut Planning Region,Lebanon,Lebanon,2225.0,15.88001044126745,4.164130229074069,0918042390,Lebanon town,140113258,41.632955,-72.24009,matched,
09011,New London,09180,Southeastern Connecticut Planning Region,Ledyard,Ledyard,6781.0,68.51657651009458,0.3509788774785763,0918042600,Ledyard town,98968751,41.431132,-72.020303,matched,
09011,New London,09180,Southeastern Connecticut Planning Region,Lisbon,Lisbon,1862.0,44.12294671900631,2.4649411767319482,0918043230,Lisbon town,42200264,41.602766,-72.012261,matched,
09011,New London,09180,Southeastern Connecticut Planning Region,Montville,Montville,8055.0,74.39287036462804,0.7170509815301301,0918048900,Montville town,108276505,41.4639,-72.15557,matched,
09011,New London,09180,Southeastern Connecticut Planning Region,New London,New London,13996.0,963.8191810208881,0.09556124704537913,0918052350,New London town,14521396,41.332957,-72.096176,matched,
09011,New London,09180,Southeastern Connecticut Planning Region,North Stonington,North Stonington,2614.0,18.60473392259,2.343322109168587,0918055500,North Stonington town,140501875,41.470969,-71.872525,matched,
09011,New London,09180,Southeastern Connecticut Planning Region,Norwich,Norwich,5.0,0.06879454050929368,0.0,0918056270,Norwich town,72680186,41.548006,-72.089454,matched,
09011,New London,09180,Southeastern Connecticut Planning Region,Preston,Preston,2217.0,27.76501196713344,3.1146793792608207,0918062150,Preston town,79848696,41.518652,-72.006597,matched,
09011,New London,09180,Southeastern Connecticut Planning Region,Salem,Salem,1981.0,26.43981015922678,0.8037229104722079,0918066210,Salem town,74924895,41.489351,-72.25838,matched,
09011,New London,09180,Southeastern Connecticut Planning Region,Sprague,Sprague,1458.0,42.51213476521668,7.205400805453745,0918071670,Sprague town,34296090,41.63557,-72.077527,matched,
09011,New London,09180,Southeastern Connecticut Planning Region,Stonington,Stonington,10831.0,108.22817625190827,0.3440969318338764,0918073770,Stonington town,100075603,41.36351,-71.911368,matched,
09011,New London,09180,Southeastern Connecticut Planning Region,Waterford,Waterford,9789.0,114.99912743281337,0.33071088146798816,0918080280,Waterford town,85122385,41.351686,-72.146834,matched,
09013,Tolland,09110,Capitol Planning Region,Andover,Andover,1421.0,35.51391610678307,3.866261827105344,0911001080,Andover town,40012484,41.732982,-72.374658,matched,
09013,Tolland,09110,Capitol Planning Region,Bolton,Bolton,2253.0,60.37858417445954,2.227685846906154,0911006260,Bolton town,37314555,41.764589,-72.437575,matched,
09013,Tolland,09110,Capitol Planning Region,Columbia,Columbia,2487.0,44.928148563567426,1.7305790216870431,0911016400,Columbia town,55355052,41.693707,-72.305671,matched,
09013,Tolland,09110,Capitol Planning Region,Coventry,Coventry,5647.0,58.03221623492304,1.074995125275542,0911017800,Coventry town,97308019,41.780212,-72.343758,matched,
09013,Tolland,09110,Capitol Planning Region,Ellington,Ellington,7680.0,87.1094445783853,0.3596683993462284,0911025360,Ellington town,88164952,41.914149,-72.445568,matched,
09013,Tolland,09110,Capitol Planning Region,Hebron,Hebron,3954.0,41.378177105442056,0.284118501479909,0911037910,Hebron town,95557617,41.658584,-72.39342,matched,
09013,Tolland,09110,Capitol Planning Region,Mansfield,Mansfield,7443.0,64.38253888454929,1.0396004817442714,0911044910,Mansfield town,115605879,41.789272,-72.228464,matched,
09013,Tolland,09110,Capitol Planning Region,Somers,Somers,4099.0,55.616490822763424,0.6414117342734649,0911069220,Somers town,73701162,41.992633,-72.453725,matched,
09013,Tolland,09110,Capitol Planning Region,Stafford,Stafford,6298.0,41.89817353434478,0.6015464744624327,0911072090,Stafford town,150316815,41.983879,-72.307574,matched,
09013,Tolland,09110,Capitol Planning Region,Tolland,Tolland,6041.0,58.85991587504253,1.466858199976536,0911076290,Tolland town,102633514,41.883019,-72.358869,matched,
09013,Tolland,09110,Capitol Planning Region,Vernon,Vernon,16136.0,351.64469624629965,1.12995111473489,0911078250,Vernon town,45887227,41.837561,-72.45904,matched,
09013,Tolland,09110,Capitol Planning Region,Willington,Willington,2958.0,34.303572819161666,0.1985900305385355,0911085950,Willington town,86230085,41.897267,-72.251848,matched,
09013,Tolland,09150,Northeastern Connecticut Planning Region,Union,Union,455.0,6.089391952666446,0.5756411100639702,0915077830,Union town,74720104,41.999885,-72.162244,matched,
09015,Windham,09150,Northeastern Connecticut Planning Region,Ashford,Ashford,2196.0,21.874041143039374,0.36286275115395433,0915001430,Ashford town,100392972,41.897123,-72.171427,matched,
09015,Windham,09150,Northeastern Connecticut Planning Region,Brooklyn,Brooklyn,3658.0,48.47933846510147,0.819851581599297,0915009190,Brooklyn town,75454825,41.787243,-71.957401,matched,
09015,Windham,09150,Northeastern Connecticut Planning Region,Canterbury,Canterbury,2272.0,21.960922047097398,2.4541840802454162,0915012130,Canterbury town,103456494,41.69396,-72.009118,matched,
09015,Windham,09150,Northeastern Connecticut Planning Region,Chaplin,Chaplin,1125.0,22.400283792679858,0.5472171579611227,0915013810,Chaplin town,50222578,41.79089,-72.12954,matched,
09015,Windham,09150,Northeastern Connecticut Planning Region,Eastford,Eastford,913.0,12.188852505379248,1.4069145642100362,0915021860,Eastford town,74904508,41.89559,-72.093304,matched,
09015,Windham,09150,Northeastern Connecticut Planning Region,Hampton,Hampton,884.0,13.60241013780857,2.676241346923893,0915036000,Hampton town,64988483,41.78303,-72.064572,matched,
09015,Windham,09150,Northeastern Connecticut Planning Region,Killingly,Killingly,8878.0,70.90054909831879,0.6902652597378246,0915040500,Killingly town,125217648,41.829902,-71.849097,matched,
09015,Windham,09150,Northeastern Connecticut Planning Region,Plainfield,Plainfield,7219.0,65.72042844730457,0.47429848796412516,0915059980,Plainfield town,109844080,41.693613,-71.900776,matched,
09015,Windham,09150,Northeastern Connecticut Planning Region,Pomfret,Pomfret,1914.0,18.32433369840946,3.2386388828480515,0915061030,Pomfret town,104451274,41.86804,-71.97226,matched,
09015,Windham,09150,Northeastern Connecticut Planning Region,Putnam,Putnam,5218.0,99.22408401651941,0.27678215854681426,0915062710,Putnam town,52588039,41.908027,-71.870452,matched,
09015,Windham,09150,Northeastern Connecticut Planning Region,Scotland,Scotland,724.0,15.003670096649332,7.242521438310906,0915067400,Scotland town,48254860,41.697636,-72.087289,matched,
09015,Windham,09150,Northeastern Connecticut Planning Region,Sterling,Sterling,1665.0,23.617079900552945,1.3816119709808832,0915073420,Sterling town,70499825,41.7012,-71.815988,matched,
09015,Windham,09150,Northeastern Connecticut Planning Region,Thompson,Thompson,4672.0,38.453826929465215,1.726616280353433,0915075870,Thompson town,121496360,41.990287,-71.867024,matched,
09015,Windham,09150,Northeastern Connecticut Planning Region,Woodstock,Woodstock,4177.0,26.577128784271842,1.478076970149945,0915088190,Woodstock town,157165209,41.966208,-72.022786,matched,
09015,Windham,09180,Southeastern Connecticut Planning Region,Windham,Windham,10301.0,148.14364195058047,0.3105050312945983,0918086790,Windham town,69533865,41.714475,-72.168667,matched,
