state,county,city,town_tracked,aland_sqkm,density,lat,lon,rel
Connecticut,Fairfield,Bethel,8843.0,43.91819,201.35164951014602,41.369778,-73.389503,0.9592560398912141
Connecticut,Fairfield,Bridgeport,60475.0,41.606639,1453.4939964749376,41.187393,-73.195757,0.4365241367778956
Connecticut,Fairfield,Brookfield,8395.0,51.115716,164.23520312226478,41.470402,-73.39476,0.4668044630407775
Connecticut,Fairfield,Danbury,37236.0,108.855295,342.06879876628875,41.398741,-73.478103,1.0859165909930424
Connecticut,Fairfield,Darien,8084.0,32.774488,246.6552643019168,41.05215,-73.479714,1.0923386336938874
Connecticut,Fairfield,Easton,2964.0,71.026086,41.73114649735873,41.264945,-73.300479,0.5949979747111229
Connecticut,Fairfield,Fairfield,24168.0,77.447782,312.0554181913176,41.17594,-73.272046,1.5131054051355493
Connecticut,Fairfield,Greenwich,28166.0,123.59768,227.8845363440479,41.045366,-73.634018,0.7435760690684224
Connecticut,Fairfield,Monroe,7948.0,67.522444,117.70900946654125,41.339236,-73.222828,3.0507254064288407
Connecticut,Fairfield,New Canaan,8459.0,57.48408,147.15378588297838,41.160393,-73.500124,2.6697297748174926
Connecticut,Fairfield,New Fairfield,6097.0,52.889967,115.27706190476542,41.480318,-73.486863,0.8765542682359235
Connecticut,Fairfield,Newtown,11401.0,148.996254,76.5187022755619,41.399503,-73.293982,3.548381637685046
Connecticut,Fairfield,Norwalk,31357.0,59.275232,529.0067865107638,41.092739,-73.419796,0.97672282243675
Connecticut,Fairfield,Redding,3830.0,81.527153,46.97821350391078,41.305415,-73.392584,1.2353763787786354
Connecticut,Fairfield,Ridgefield,10925.0,89.355361,122.26462830808775,41.317675,-73.499837,1.1218668099543547
Connecticut,Fairfield,Shelton,18447.5,79.334982,232.52668034890334,41.304577,-73.139215,1.211498509550186
Connecticut,Fairfield,Sherman,1988.0,56.757602,35.02614504397138,41.579418,-73.49769,3.972541563475984
Connecticut,Fairfield,Southport,1.0,,,,,0.0
Connecticut,Fairfield,Stamford,60264.0,97.455298,618.3758219075992,41.079611,-73.54608,0.5003638710459312
Connecticut,Fairfield,Stratford,23623.0,45.275801,521.757748692287,41.205688,-73.127986,0.7736401928365586
Connecticut,Fairfield,Trumbull,13954.0,60.189114,231.8359429580572,41.272891,-73.211899,0.3982938396969828
Connecticut,Fairfield,Weston,3868.0,51.203832,75.54122121172493,41.227413,-73.367061,1.726041453213768
Connecticut,Fairfield,Westport,12570.0,51.695166,243.15619762203684,41.120831,-73.343464,1.5784872515114012
Connecticut,Fairfield,Wilton,7545.0,69.376751,108.75401184468843,41.211277,-73.440977,0.3008538245171716
Connecticut,Hartford,Avon,8702.0,59.982587,145.07543664297106,41.787159,-72.852046,2.279420192598072
Connecticut,Hartford,Berlin,9821.0,68.147323,144.11424495720837,41.605451,-72.778497,0.8189733750269905
Connecticut,Hartford,Bloomfield,10601.0,67.562263,156.90711840128859,41.843772,-72.741002,2.4949974472667704
Connecticut,Hartford,Bristol,29798.0,68.373837,435.8099721681555,41.681578,-72.940749,0.21623451411633518
Connecticut,Hartford,Burlington,3909.0,76.92773,50.813926265600195,41.749079,-72.948657,2.3220567150727196
Connecticut,Hartford,Canton,5004.0,63.676511,78.5847076326151,41.858726,-72.910862,2.977495939984223
Connecticut,Hartford,East Granby,2648.0,45.4433,58.27041610094337,41.929719,-72.745378,4.59657186431391
Connecticut,Hartford,East Hartford,23223.0,46.638314,497.93824022026183,41.760695,-72.607646,0.7573537291859674
Connecticut,Hartford,East Windsor,6254.0,67.989002,91.98546553161643,41.904009,-72.564473,0.7219238074797402
Connecticut,Hartford,Enfield,19403.0,86.292839,224.85063911270782,41.983993,-72.555553,0.3092785490782945
Connecticut,Hartford,Farmington,12767.0,72.265588,176.66776612957196,41.729774,-72.842031,4.33800582485356
Connecticut,Hartford,Glastonbury,16030.0,132.758389,120.74566527016233,41.691883,-72.552173,2.220356687771331
Connecticut,Hartford,Granby,4843.0,105.497706,45.90621145828517,41.97148,-72.830159,0.5577074942862846
Connecticut,Hartford,Hartford,59069.0,45.012647,1312.2756366671792,41.765933,-72.681579,0.3740530645278883
Connecticut,Hartford,Manchester,29149.0,71.023124,410.41562745113833,41.77524,-72.524434,0.9350784552914719
Connecticut,Hartford,Marlborough,2646.0,60.479198,43.7505801581562,41.636439,-72.454002,4.554867607678321
Connecticut,Hartford,New Britain,34606.0,34.694284,997.4553733404614,41.676555,-72.786161,0.18374076970685854
Connecticut,Hartford,Newington,14823.0,34.034098,435.5337990740933,41.686993,-72.730839,1.3540908058673164
Connecticut,Hartford,Plainville,9442.0,25.139798,375.57978787259947,41.673992,-72.854434,0.11927803073299151
Connecticut,Hartford,Rocky Hill,10194.0,34.86796,292.360092187785,41.656624,-72.661779,0.01536583239374047
Connecticut,Hartford,Simsbury,10989.0,87.883318,125.04079556941625,41.87253,-72.828438,2.8927777615401626
Connecticut,Hartford,South Windsor,12148.0,72.668282,167.17059583161742,41.83809,-72.577836,0.5705811330500888
Connecticut,Hartford,Southington,20046.0,92.913801,215.74835798612952,41.60716,-72.87876,1.2967770911106062
Connecticut,Hartford,Suffield,6298.0,109.525314,57.502688373940664,41.999915,-72.678751,1.8231085927458044
Connecticut,Hartford,West Hartford,28711.0,56.560149,507.618889052078,41.766568,-72.754944,0.7391699746892825
Connecticut,Hartford,Wethersfield,12463.0,31.862532,391.1490775434921,41.702484,-72.669301,0.11987008313527549
Connecticut,Hartford,Windsor,13404.0,76.443198,175.34588231120316,41.871037,-72.675082,1.165266179541308
Connecticut,Hartford,Windsor Locks,6408.0,23.371633,274.17853087116333,41.92779,-72.651616,0.16377007228407944
Connecticut,Litchfield,Barkhamsted,1781.0,93.896736,18.96764547811332,41.935708,-72.972921,2.7506706626079795
Connecticut,Litchfield,Bethlehem,1916.0,50.181137,38.18167770889687,41.635759,-73.211422,0.7986505069722301
Connecticut,Litchfield,Bridgewater,964.0,42.478578,22.69379168012639,41.520294,-73.361093,5.6504387546467925
Connecticut,Litchfield,Canaan,1307.0,85.242555,15.332717326457425,41.962959,-73.307143,0.5327300326513219
Connecticut,Litchfield,Colebrook,823.0,81.722366,10.070682486114022,42.005797,-73.064184,0.3453170030756326
Connecticut,Litchfield,Cornwall,1203.0,119.297429,10.084039614969406,41.84806,-73.330561,0.32025416527469974
Connecticut,Litchfield,Goshen,1919.0,113.004839,16.981573682875652,41.849537,-73.234002,0.15184459391064895
Connecticut,Litchfield,Harwinton,2512.0,79.759564,31.494655612711224,41.761345,-73.060443,3.413562078122575
Connecticut,Litchfield,Kent,2146.0,125.81316,17.057039184136222,41.729782,-73.45414,0.6387271072920844
Connecticut,Litchfield,Litchfield,4715.0,145.296074,32.450980058828016,41.740937,-73.192751,0.6346657569123694
Connecticut,Litchfield,Morris,1410.0,44.961621,31.360079299632012,41.694323,-73.209998,0.6554896037464114
Connecticut,Litchfield,New Hartford,3307.0,95.92721,34.474055901344364,41.841053,-72.998664,0.8846190610865602
Connecticut,Litchfield,New Milford,13957.0,159.446316,87.5341641634417,41.601267,-73.422807,0.4947924824945194
Connecticut,Litchfield,Norfolk,1120.0,117.436917,9.537035104557454,41.969773,-73.178439,3.748947663845914
Connecticut,Litchfield,North Canaan,1471.0,50.176807,29.31633334101949,42.020594,-73.296246,0.4256389385475957
Connecticut,Litchfield,Plymouth,5776.0,56.674087,101.91606615559594,41.666392,-73.026516,0.023239150072876313
Connecticut,Litchfield,Roxbury,1351.0,68.102993,19.83760097004841,41.555532,-73.296026,1.4499032667918494
Connecticut,Litchfield,Salisbury,2989.0,148.239632,20.1632988403533,41.986226,-73.425273,0.9516598448587301
Connecticut,Litchfield,Sharon,2170.0,152.201015,14.257460766605268,41.860763,-73.449215,0.21498213433279764
Connecticut,Litchfield,Thomaston,3847.0,31.050042,123.8967728288419,41.664944,-73.096325,0.2726849857107464
Connecticut,Litchfield,Torrington,18721.0,102.982068,181.78893047671173,41.8342,-73.13147,0.3900946856042131
Connecticut,Litchfield,Warren,830.0,68.13214,12.182209453570662,41.735855,-73.342831,0.05517577028784434
Connecticut,Litchfield,Washington,2625.0,98.60227,26.62210515031753,41.656175,-73.310175,1.029540036821986
Connecticut,Litchfield,Watertown,10199.0,75.13901,135.73508620888137,41.617245,-73.114362,0.7287374836705062
Connecticut,Litchfield,Winchester,6151.0,84.213566,73.04048851226653,41.927213,-73.109336,1.232804587974463
Connecticut,Litchfield,Woodbury,5180.0,94.16848,55.00779029246304,41.561632,-73.206096,5.177310185239923
Connecticut,Middlesex,Chester,2084.0,41.573119,50.12854580384022,41.411728,-72.487146,0.09497597092569436
Connecticut,Middlesex,Clinton,7112.0,41.975453,169.43235847865657,41.29513,-72.530039,0.5105576447260802
Connecticut,Middlesex,Cromwell,7133.0,32.25118,221.1702021445417,41.616609,-72.66156,0.5149297960829635
Connecticut,Middlesex,Deep River,2462.0,35.001764,70.33931204153025,41.367819,-72.477442,0.11712124436210389
Connecticut,Middlesex,Durham,3129.0,61.276966,51.063233124172626,41.468922,-72.684525,4.056445908461103
Connecticut,Middlesex,East Haddam,4939.0,140.516009,35.14901992412836,41.476661,-72.39212,1.0485782843720428
Connecticut,Middlesex,East Hampton,6270.0,92.335619,67.90445624239548,41.567737,-72.509544,0.18107358694458908
Connecticut,Middlesex,Essex,4016.0,26.942176,149.05997199335346,41.349862,-72.413383,0.07884055097288846
Connecticut,Middlesex,Haddam,3953.0,113.796056,34.73758352398435,41.480809,-72.548636,2.9350663728893074
Connecticut,Middlesex,Killingworth,2878.0,91.506573,31.451292575452474,41.374419,-72.578328,1.0609777678430696
Connecticut,Middlesex,Middlefield,2204.0,32.759592,67.27800517173719,41.514163,-72.717844,1.9440700103618593
Connecticut,Middlesex,Middletown,23082.0,106.235853,217.27128222898534,41.548611,-72.656784,1.1260152313496752
Connecticut,Middlesex,Old Saybrook,7128.0,39.003142,182.7545073163593,41.293504,-72.383594,0.494294511360694
Connecticut,Middlesex,Portland,4656.0,60.476326,76.9888038502868,41.598834,-72.589071,0.44240953564123486
Connecticut,Middlesex,Westbrook,4658.0,40.84393,114.04387383878094,41.303695,-72.478017,1.7337311283002446
Connecticut,New Haven,Ansonia,8555.0,15.588608,548.7981993004122,41.344249,-73.069825,0.13206427151885922
Connecticut,New Haven,Beacon Falls,2806.0,25.055586,111.99099474264939,41.443685,-73.051925,0.9549273190798916
Connecticut,New Haven,Bethany,2353.0,54.564789,43.12304772222248,41.422964,-72.994187,11.082811793530889
Connecticut,New Haven,Branford,16593.0,56.568416,293.3262264228859,41.279949,-72.78595,0.3129769823743222
Connecticut,New Haven,Cheshire,11575.0,85.045589,136.10347269157015,41.511827,-72.903617,1.9509510857800203
Connecticut,New Haven,Derby,6393.0,13.094125,488.2342271820377,41.326124,-73.082574,0.11723196361195587
Connecticut,New Haven,East Haven,13315.0,31.847385,418.08770170612127,41.293453,-72.858994,0.15712469171132792
Connecticut,New Haven,Guilford,11043.0,121.933331,90.56588472925422,41.339032,-72.70609,0.555969339234529
Connecticut,New Haven,Hamden,26952.0,84.513849,318.90631321264283,41.397329,-72.922226,1.1965004505317605
Connecticut,New Haven,Madison,9184.0,93.622112,98.09648387338238,41.344479,-72.624543,0.47229520630230576
Connecticut,New Haven,Meriden,27834.0,61.466622,452.8311316668744,41.536777,-72.794543,0.31697648191026734
Connecticut,New Haven,Middlebury,3485.0,45.988511,75.77979639306,41.524691,-73.123016,1.4496954456264324
Connecticut,New Haven,Milford,27328.0,57.444044,475.7325232882281,41.225086,-73.06111,0.7690831647342966
Connecticut,New Haven,Naugatuck,14450.0,42.435044,340.52044343349803,41.487785,-73.051551,4.4137106445371375
Connecticut,New Haven,New Haven,58827.0,48.407074,1215.2562660573121,41.310809,-72.924953,0.7954538090049411
Connecticut,New Haven,North Branford,3491.0,64.123452,54.44186005457099,41.362257,-72.783462,0.08157827279534687
Connecticut,New Haven,North Haven,11648.0,53.974694,215.8048362441851,41.381465,-72.856371,1.8039425564151967
Connecticut,New Haven,Orange,6396.0,44.498764,143.73432934002392,41.284951,-73.024637,0.4690908084039187
Connecticut,New Haven,Oxford,5613.0,84.809656,66.18350155788865,41.444033,-73.148235,1.784411459387825
Connecticut,New Haven,Prospect,4149.0,36.781443,112.80144718628901,41.499247,-72.975634,1.3493169596915622
Connecticut,New Haven,Seymour,7631.0,37.600922,202.94715113634714,41.385466,-73.083641,1.8219733089383092
Connecticut,New Haven,Southbury,9962.0,101.023392,98.61082470879616,41.475986,-73.229692,0.7705692489210177
Connecticut,New Haven,Wallingford,9.0,101.433657,0.08872794559699253,41.458657,-72.804516,0.0
Connecticut,New Haven,Waterbury,51722.0,73.961202,699.312593648762,41.5585,-73.036685,0.45984296493902693
Connecticut,New Haven,West Haven,24872.0,27.842629,893.306447462271,41.272121,-72.967497,1.0059774939103792
Connecticut,New Haven,Wolcott,6989.0,52.800707,132.3656518462906,41.59503,-72.968514,0.1505156892718054
Connecticut,New Haven,Woodbridge,3751.0,48.722327,76.98729167841265,41.363536,-73.003891,4.501116740830628
Connecticut,New London,Colchester,7233.0,126.766631,57.05760216976974,41.557271,-72.344247,0.5361427028563859
Connecticut,New London,East Lyme,10079.0,88.104875,114.39775608330412,41.356068,-72.229841,0.8661709859094093
Connecticut,New London,Franklin,1020.0,51.048739,19.980904915202707,41.621212,-72.142609,2.284843711168013
Connecticut,New London,Griswold,3407.0,89.897144,37.89886806637595,41.584772,-71.921091,1.9963987229387643
Connecticut,New London,Groton,5594.0,80.573716,69.4271069736935,41.347718,-72.031345,0.19254518830308232
Connecticut,New London,Lebanon,2225.0,140.113258,15.88001044126745,41.632955,-72.24009,4.164130229074069
Connecticut,New London,Ledyard,6781.0,98.968751,68.51657651009458,41.431132,-72.020303,0.3509788774785763
Connecticut,New London,Lisbon,1862.0,42.200264,44.12294671900631,41.602766,-72.012261,2.4649411767319482
Connecticut,New London,Lyme,1338.0,82.353554,16.247021956089473,41.398615,-72.331546,4.897564650961298
Connecticut,New London,Montville,8055.0,108.276505,74.39287036462804,41.4639,-72.15557,0.7170509815301301
Connecticut,New London,New London,13996.0,14.521396,963.8191810208881,41.332957,-72.096176,0.09556124704537913
Connecticut,New London,North Stonington,2614.0,140.501875,18.60473392259,41.470969,-71.872525,2.343322109168587
Connecticut,New London,Norwich,5.0,72.680186,0.06879454050929368,41.548006,-72.089454,0.0
Connecticut,New London,Old Lyme,5495.0,59.605004,92.19024630885018,41.31232,-72.305742,1.7761440348968447
Connecticut,New London,Preston,2217.0,79.848696,27.76501196713344,41.518652,-72.006597,3.1146793792608207
Connecticut,New London,Salem,1981.0,74.924895,26.43981015922678,41.489351,-72.25838,0.8037229104722079
Connecticut,New London,Sprague,1458.0,34.29609,42.51213476521668,41.63557,-72.077527,7.205400805453745
Connecticut,New London,Stonington,10831.0,100.075603,108.22817625190827,41.36351,-71.911368,0.3440969318338764
Connecticut,New London,Voluntown,1321.0,100.924002,13.089056852898084,41.579192,-71.831228,2.0665567579986703
Connecticut,New London,Waterford,9789.0,85.122385,114.99912743281337,41.351686,-72.146834,0.33071088146798816
Connecticut,Tolland,Andover,1421.0,40.012484,35.51391610678307,41.732982,-72.374658,3.866261827105344
Connecticut,Tolland,Bolton,2253.0,37.314555,60.37858417445954,41.764589,-72.437575,2.227685846906154
Connecticut,Tolland,Columbia,2487.0,55.355052,44.928148563567426,41.693707,-72.305671,1.7305790216870431
Connecticut,Tolland,Coventry,5647.0,97.308019,58.03221623492304,41.780212,-72.343758,1.074995125275542
Connecticut,Tolland,Ellington,7680.0,88.164952,87.1094445783853,41.914149,-72.445568,0.3596683993462284
Connecticut,Tolland,Hebron,3954.0,95.557617,41.378177105442056,41.658584,-72.39342,0.284118501479909
Connecticut,Tolland,Mansfield,7443.0,115.605879,64.38253888454929,41.789272,-72.228464,1.0396004817442714
Connecticut,Tolland,Somers,4099.0,73.701162,55.616490822763424,41.992633,-72.453725,0.6414117342734649
Connecticut,Tolland,Stafford,6298.0,150.316815,41.89817353434478,41.983879,-72.307574,0.6015464744624327
Connecticut,Tolland,Tolland,6041.0,102.633514,58.85991587504253,41.883019,-72.358869,1.466858199976536
Connecticut,Tolland,Union,455.0,74.720104,6.089391952666446,41.999885,-72.162244,0.5756411100639702
Connecticut,Tolland,Vernon,16136.0,45.887227,351.64469624629965,41.837561,-72.45904,1.12995111473489
Connecticut,Tolland,Willington,2958.0,86.230085,34.303572819161666,41.897267,-72.251848,0.1985900305385355
Connecticut,Unknown,Hartland,874.0,85.456173,10.227464784785061,42.001205,-72.954027,1.0
Connecticut,Windham,Ashford,2196.0,100.392972,21.874041143039374,41.897123,-72.171427,0.36286275115395433
Connecticut,Windham,Brooklyn,3658.0,75.454825,48.47933846510147,41.787243,-71.957401,0.819851581599297
Connecticut,Windham,Canterbury,2272.0,103.456494,21.960922047097398,41.69396,-72.009118,2.4541840802454162
Connecticut,Windham,Chaplin,1125.0,50.222578,22.400283792679858,41.79089,-72.12954,0.5472171579611227
Connecticut,Windham,Eastford,913.0,74.904508,12.188852505379248,41.89559,-72.093304,1.4069145642100362
Connecticut,Windham,Hampton,884.0,64.988483,13.60241013780857,41.78303,-72.064572,2.676241346923893
Connecticut,Windham,Killingly,8878.0,125.217648,70.90054909831879,41.829902,-71.849097,0.6902652597378246
Connecticut,Windham,Plainfield,7219.0,109.84408,65.72042844730457,41.693613,-71.900776,0.47429848796412516
Connecticut,Windham,Pomfret,1914.0,104.451274,18.32433369840946,41.86804,-71.97226,3.2386388828480515
Connecticut,Windham,Putnam,5218.0,52.588039,99.22408401651941,41.908027,-71.870452,0.27678215854681426
Connecticut,Windham,Scotland,724.0,48.25486,15.003670096649332,41.697636,-72.087289,7.242521438310906
Connecticut,Windham,Sterling,1665.0,70.499825,23.617079900552945,41.7012,-71.815988,1.3816119709808832
Connecticut,Windham,Thompson,4672.0,121.49636,38.453826929465215,41.990287,-71.867024,1.726616280353433
Connecticut,Windham,Windham,10301.0,69.533865,148.14364195058047,41.714475,-72.168667,0.3105050312945983
Connecticut,Windham,Woodstock,4177.0,157.165209,26.577128784271842,41.966208,-72.022786,1.478076970149945
Massachusetts,Barnstable,Barnstable,31289.0,,,,,1.1198988582543867
Massachusetts,Barnstable,Bourne,11579.0,105.32398,109.93697731513754,41.71746,-70.591824,0.4538549804339254
Massachusetts,Barnstable,Brewster,9025.0,59.415921,151.8953143888824,41.747513,-70.066223,0.2457634543924437
Massachusetts,Barnstable,Chatham,8466.0,41.881402,202.14223010012893,41.621629,-69.981956,5.485403586896456
Massachusetts,Barnstable,Dennis,17127.0,53.342892,321.0737055651201,41.706123,-70.164823,0.3138539918516814
Massachusetts,Barnstable,Eastham,6591.0,36.176094,182.19214047818429,41.841572,-69.988926,0.0
Massachusetts,Barnstable,Falmouth,25734.0,114.107075,225.52501674414142,41.594889,-70.599245,0.9498651070829586
Massachusetts,Barnstable,Harwich,11251.0,54.089038,208.00887603140583,41.697108,-70.070167,0.07605963460971982
Massachusetts,Barnstable,Mashpee,12074.0,60.590538,199.27203815222765,41.617623,-70.492713,0.5956776536560352
Massachusetts,Barnstable,Orleans,6734.0,36.683277,183.5713859478803,41.765676,-69.966195,1.5760562021371884
Massachusetts,Barnstable,Provincetown,5907.0,25.046216,235.8440093305911,42.056927,-70.190475,0.04576479904934109
Massachusetts,Barnstable,Sandwich,11014.0,111.028871,99.19942354453015,41.7132,-70.485737,1.6947872498715106
Massachusetts,Barnstable,Truro,3638.0,54.268861,67.03660133939424,42.013557,-70.064151,2.3686573987384856
Massachusetts,Barnstable,Wellfleet,4726.0,51.240906,92.23099997490286,41.916805,-70.0271,2.7604784272082292
Massachusetts,Barnstable,Yarmouth,18600.0,62.563418,297.2983349471092,41.674949,-70.226014,0.3076135684336313
Massachusetts,Berkshire,Adams,4635.0,59.281213,78.18665923721905,42.62556,-73.119828,0.37629988137082243
Massachusetts,Berkshire,Alford,371.0,29.801961,12.448845228674717,42.253544,-73.426528,0.8005556684775881
Massachusetts,Berkshire,Cheshire,1672.0,69.442567,24.07745093870162,42.565107,-73.149142,0.32426639480027736
Massachusetts,Berkshire,Clarksburg,795.0,32.868764,24.187097513006574,42.72272,-73.105818,0.25030130341620277
Massachusetts,Berkshire,Egremont,1052.0,48.347232,21.759260178535143,42.173533,-73.444931,2.4498319396392225
Massachusetts,Berkshire,Florida,410.0,63.090077,6.498644786881462,42.680041,-73.015814,5.760925749937581
Massachusetts,Berkshire,Great Barrington,4519.0,116.080288,38.92995165553001,42.221696,-73.333175,0.12554572806481407
Massachusetts,Berkshire,Hancock,717.0,92.421766,7.757912784311003,42.530004,-73.316635,2.79896571729404
Massachusetts,Berkshire,Lenox,3111.0,54.951001,56.6140733268899,42.367858,-73.269763,0.22871245220398162
Massachusetts,Berkshire,Monterey,946.0,68.464304,13.817419366448245,42.186893,-73.223105,0.3236895328468133
Massachusetts,Berkshire,Mount Washington,180.0,57.63185,3.1232729818667977,42.09092,-73.470197,0.0
Massachusetts,Berkshire,New Marlboro,1167.0,,,,,2.045385736598235
Massachusetts,Berkshire,North Adams,7060.0,52.698042,133.97082191402862,42.675565,-73.118114,0.05755406136598366
Massachusetts,Berkshire,Sheffield,2141.0,122.792167,17.43596560194267,42.10365,-73.359887,6.344130590160947
Massachusetts,Berkshire,Stockbridge,1861.0,58.901712,31.59500694988288,42.301969,-73.323024,0.4694444272371258
Massachusetts,Berkshire,West Stockbridge,1011.0,47.79281,21.15380953745971,42.312354,-73.388044,0.19889276569436962
Massachusetts,Berkshire,Williamstown,3404.0,121.037735,28.123460836407755,42.695743,-73.222118,1.8471641605892979
Massachusetts,Bristol,Acushnet,4634.0,47.725793,97.09634368987855,41.718217,-70.901151,0.185011957039218
Massachusetts,Bristol,Attleboro,20009.0,69.358022,288.4886192400354,41.931653,-71.294503,1.141517739361999
Massachusetts,Bristol,Dartmouth,14878.0,157.799666,94.28410323758226,41.56651,-70.958229,0.7076927468125412
Massachusetts,Bristol,Dighton,2777.0,57.059612,48.66839963790851,41.829273,-71.152087,0.2026551829675457
Massachusetts,Bristol,Easton,10062.0,74.488365,135.0814989696713,42.039187,-71.109,4.518575843145026
Massachusetts,Bristol,Fairhaven,8310.0,32.068598,259.13200196653435,41.633667,-70.871362,0.2635825883049195
Massachusetts,Bristol,Fall River,44678.0,85.787945,520.7957831371297,41.725351,-71.094162,0.6678589034544979
Massachusetts,Bristol,Freetown,4201.0,89.259286,47.06513112820553,41.779379,-71.019526,1.241838700873949
Massachusetts,Bristol,New Bedford,47702.0,51.802064,920.8513390508919,41.661303,-70.937913,0.35174119542174187
Massachusetts,Bristol,Norton,7680.0,72.087913,106.53658401790602,41.965341,-71.18178,4.841682929624779
Massachusetts,Bristol,Rehoboth,5174.0,121.557135,42.56434638740046,41.846878,-71.24487,1.1631912134409796
Massachusetts,Bristol,Seekonk,6647.0,47.643806,139.51446280341247,41.839798,-71.318047,1.0727268534868752
Massachusetts,Bristol,Somerset,7876.0,20.456373,385.014489127667,41.738483,-71.165053,0.12740874236346614
Massachusetts,Bristol,Swansea,7458.0,58.739288,126.96783113884526,41.758163,-71.214181,1.671146953749809
Massachusetts,Bristol,Westport,8977.0,129.035325,69.57009640577105,41.579794,-71.081822,0.33227344632278777
Massachusetts,Dukes,Aquinnah,558.0,13.806,40.41720990873534,41.334,-70.823432,7.384188745147205
Massachusetts,Dukes,Chilmark,1851.0,49.301762,37.544297098347116,41.303014,-70.778694,7.030841668334228
Massachusetts,Dukes,Edgartown,6090.0,69.445842,87.69423517105604,41.375934,-70.48076,0.0
Massachusetts,Dukes,Oak Bluffs,4824.0,18.874981,255.57641620937264,41.45716,-70.556101,0.0
Massachusetts,Dukes,Tisbury,3919.0,16.884798,232.10227329933116,41.473071,-70.617422,0.0
Massachusetts,Dukes,West Tisbury,2688.0,64.827903,41.46362716683894,41.394406,-70.656447,1.0400054881403282
Massachusetts,Essex,Amesbury,8028.0,,,,,0.2571278475701926
Massachusetts,Essex,Andover,14171.0,79.811577,177.55569470830028,42.648044,-71.161751,0.8941398682218018
Massachusetts,Essex,Beverly,19280.0,39.082255,493.31851501403895,42.556659,-70.84496,0.22991345602672153
Massachusetts,Essex,Boxford,3037.0,61.01918,49.771235863871,42.683108,-71.027188,1.181596090666669
Massachusetts,Essex,Essex,2051.0,36.161205,56.71824265811938,42.640451,-70.771165,0.7589740057278983
Massachusetts,Essex,Gloucester,16735.0,67.838409,246.68915805498918,42.62885,-70.685875,4.056712333221103
Massachusetts,Essex,Hamilton,3142.0,36.717405,85.57249620445671,42.626223,-70.85723,1.337854908739165
Massachusetts,Essex,Haverhill,28639.0,85.561708,334.71748834186434,42.782945,-71.087436,1.6991634982723003
Massachusetts,Essex,Lawrence,30508.0,17.948043,1699.7953481613567,42.700273,-71.161357,0.9063723991257013
Massachusetts,Essex,Lynn,37662.0,27.813613,1354.0851380940692,42.474766,-70.962035,0.8637913684540357
Massachusetts,Essex,Manchester,2687.0,,,,,2.7909227663982734
Massachusetts,Essex,Methuen,20515.0,,,,,1.1620203956198292
Massachusetts,Essex,Nahant,1731.0,2.786306,621.2526549488821,42.41824,-70.932728,0.6313015025637018
Massachusetts,Essex,Newbury,3350.0,60.534393,55.340440929175585,42.770406,-70.872417,1.969615301586368
Massachusetts,Essex,Newburyport,9856.0,21.626955,455.7275862459602,42.812141,-70.886646,0.05563927959925861
Massachusetts,Essex,North Andover,12587.0,68.075842,184.89672151245668,42.673909,-71.091334,0.1566319286478118
Massachusetts,Essex,Rockport,4995.0,18.098036,275.99679876866196,42.656952,-70.60463,0.18571518180451643
Massachusetts,Essex,Salem,21365.0,21.481051,994.5975175981845,42.499248,-70.898204,0.37302711247971765
Massachusetts,Essex,Salisbury,5474.0,39.817066,137.47873838820772,42.844794,-70.841499,0.5156991109354724
Massachusetts,Essex,Saugus,11811.0,27.907444,423.2204138795369,42.468432,-71.013946,0.4153626571796416
Massachusetts,Essex,Swampscott,6289.0,7.826791,803.5221586982456,42.468059,-70.89126,0.09053566434174452
Massachusetts,Essex,Topsfield,2790.0,30.815148,90.53988642209345,42.641387,-70.943383,0.8264542244161691
Massachusetts,Essex,Wenham,1526.0,19.837024,76.92686160988664,42.600668,-70.88326,1.6455897429806732
Massachusetts,Essex,West Newbury,1812.0,34.828194,52.026814827090945,42.799565,-70.964428,0.6776331303136203
Massachusetts,Franklin,Charlemont,801.0,67.988989,11.781319472186885,42.63313,-72.854712,1.06260336870515
Massachusetts,Franklin,Erving,409.0,35.721726,11.449614724663641,42.613418,-72.426428,0.511608709007391
Massachusetts,Franklin,Hawley,214.0,78.962706,2.710140151478598,42.575572,-72.900789,0.10570748268957948
Massachusetts,Franklin,Heath,610.0,64.49624,9.457915686247757,42.693268,-72.823116,5.614351926788336
Massachusetts,Franklin,Monroe,92.0,27.679919,3.3237091481373193,42.727772,-72.985346,1.2844245300831392
Massachusetts,Franklin,New Salem,518.0,115.922616,4.468498191931762,42.458551,-72.327191,1.0746298841353834
Massachusetts,Franklin,Orange,4024.0,90.812894,44.31088827540283,42.605437,-72.292074,0.0645561760382071
Massachusetts,Franklin,Rowe,251.0,60.704189,4.134805260309136,42.695532,-72.909148,5.051882766349127
Massachusetts,Franklin,Shutesbury,878.0,68.667035,12.786339180073815,42.456968,-72.417244,1.4847562156191227
Massachusetts,Franklin,Warwick,467.0,96.733119,4.827715727847047,42.679971,-72.339882,1.1538679847153264
Massachusetts,Franklin,Wendell,487.0,82.497947,5.903177202700571,42.556308,-72.407153,0.40685091045153166
Massachusetts,Hampden,Brimfield,1804.0,90.056657,20.031833959814875,42.128176,-72.205352,2.386194969911512
Massachusetts,Hampden,East Longmeadow,6803.0,33.504997,203.04433992338514,42.062378,-72.498111,0.2552904674779652
Massachusetts,Hampden,Hampden,2175.0,50.791584,42.822054929415074,42.071188,-72.417718,0.6608011700535357
Massachusetts,Hampden,Holland,1468.0,31.809729,46.14940290751927,42.046783,-72.180212,0.19647088299551071
Massachusetts,Hampden,Monson,3858.5,114.530325,33.68976731708393,42.093596,-72.321494,0.6634409203815156
Massachusetts,Hampden,Palmer,6396.0,,,,,0.47713795132821624
Massachusetts,Hampden,Wales,1009.0,40.798912,24.731051651573452,42.061313,-72.234411,0.2918899057796286
Massachusetts,Hampden,Wilbraham,6128.0,57.094704,107.33044521957763,42.126883,-72.430952,2.605780577676923
Massachusetts,Hampshire,Belchertown,6858.0,136.237927,50.33840539866699,42.27901,-72.400468,1.9069453658213524
Massachusetts,Hampshire,Goshen,665.0,44.809103,14.840734482009157,42.437627,-72.811141,3.4282121414039985
Massachusetts,Hampshire,Granby,2655.0,72.048765,36.850041773790295,42.244949,-72.500143,1.9320204118575768
Massachusetts,Hampshire,Northampton,14939.0,88.695046,168.4310530714421,42.327044,-72.67463,0.18668913098839793
Massachusetts,Hampshire,Ware,5046.0,89.031717,56.67643138905206,42.275462,-72.280158,1.4798098586152406
Massachusetts,Hampshire,Williamsburg,1473.0,66.137923,22.271639827576685,42.405414,-72.726043,0.6061262316859866
Massachusetts,Middlesex,Acton,10458.0,51.454643,203.24696451591356,42.483953,-71.438495,1.1814043552435038
Massachusetts,Middlesex,Arlington,21540.0,13.318502,1617.2990025454815,42.418722,-71.163912,1.728299966318719
Massachusetts,Middlesex,Ashby,1409.0,61.29067,22.988817058126465,42.676293,-71.832523,0.5330260449113862
Massachusetts,Middlesex,Ashland,8161.0,31.954434,255.39491639876957,42.257755,-71.473526,0.6806775084071118
Massachusetts,Middlesex,Ayer,4084.0,23.176424,176.21355218561757,42.566573,-71.575135,2.066905591416298
Massachusetts,Middlesex,Bedford,6226.0,35.385694,175.94681059526485,42.499332,-71.281901,1.3577175120338656
Massachusetts,Middlesex,Billerica,16652.0,66.23662,251.40171705621452,42.559674,-71.260948,1.3603377290824898
Massachusetts,Middlesex,Burlington,11781.0,30.432364,387.1207639340802,42.503227,-71.201713,0.5589033426327804
Massachusetts,Middlesex,Cambridge,55064.0,16.567881,3323.5390814311136,42.376043,-71.11868,1.1413778329023514
Massachusetts,Middlesex,Carlisle,2053.0,39.560501,51.89519718165349,42.536807,-71.361324,3.467754567493402
Massachusetts,Middlesex,Chelmsford,15667.0,57.97015,270.25978024897296,42.597055,-71.3697,1.7293561309277032
Massachusetts,Middlesex,Dracut,13221.0,53.548973,246.89549134770522,42.679723,-71.30068,3.032961335618567
Massachusetts,Middlesex,Dunstable,1297.0,42.620845,30.43111885745109,42.676149,-71.499772,0.8783903461338459
Massachusetts,Middlesex,Everett,18641.0,8.847752,2106.862850586228,42.405938,-71.054649,0.4512723855510577
Massachusetts,Middlesex,Framingham,30341.0,64.863272,467.7685701701882,42.307905,-71.436196,0.8652856322052548
Massachusetts,Middlesex,Holliston,6364.0,48.317298,131.71266323708747,42.195951,-71.45343,1.4286864033824067
Massachusetts,Middlesex,Hopkinton,7160.0,67.924822,105.41065532714977,42.224096,-71.540489,0.12773592565209657
Massachusetts,Middlesex,Lexington,13402.0,42.56108,314.88862594652204,42.445222,-71.230015,1.276953922745693
Massachusetts,Middlesex,Lincoln,2577.0,36.851159,69.92995796957159,42.425506,-71.310812,3.207560365859754
Massachusetts,Middlesex,Lowell,43383.0,35.251006,1230.6882816337215,42.638995,-71.32102,0.6053492091179195
Massachusetts,Middlesex,Malden,27456.0,13.065509,2101.410668348244,42.42938,-71.058706,0.01990128711180572
Massachusetts,Middlesex,Marlborough,19298.0,54.038662,357.11468947917325,42.349617,-71.547214,0.6193197904381047
Massachusetts,Middlesex,Maynard,5039.0,13.495144,373.3935703094387,42.425955,-71.456256,0.09880205494715426
Massachusetts,Middlesex,Medford,25520.0,20.973611,1216.7671079624774,42.423844,-71.109231,0.004629414038308567
Massachusetts,Middlesex,Melrose,12593.5,12.129681,1038.2383510333043,42.455723,-71.059019,0.5114695950595441
Massachusetts,Middlesex,Natick,17234.0,38.742955,444.82925992609495,42.284822,-71.348811,0.6228775851441204
Massachusetts,Middlesex,Newton,40758.0,46.173587,882.7124477030559,42.331768,-71.2084,0.7531273388952756
Massachusetts,Middlesex,Pepperell,4991.0,58.462705,85.37066493929763,42.670643,-71.602858,2.0729702600097832
Massachusetts,Middlesex,Sherborn,1789.0,40.890896,43.750569808986334,42.231947,-71.372963,1.3374892850409221
Massachusetts,Middlesex,Shirley,2927.0,40.966099,71.44932203576425,42.573654,-71.640986,0.07782228273371243
Massachusetts,Middlesex,Somerville,39638.0,10.679355,3711.6473794531603,42.390445,-71.101033,0.4591164824876273
Massachusetts,Middlesex,Stoneham,11118.0,15.581157,713.5541988313191,42.474208,-71.097665,0.036605868181251146
Massachusetts,Middlesex,Stow,1.0,44.865893,0.022288645853989802,42.429688,-71.512514,0.0
Massachusetts,Middlesex,Sudbury,7468.0,62.861131,118.8015532205426,42.383367,-71.42107,0.7973468996851514
Massachusetts,Middlesex,Tewksbury,13070.0,53.674575,243.5044897886942,42.612088,-71.227845,0.8300422671756199
Massachusetts,Middlesex,Townsend,3988.0,84.710101,47.07821089718687,42.665002,-71.711937,0.7971137813764859
Massachusetts,Middlesex,Tyngsborough,5269.0,43.506478,121.10840137415857,42.667762,-71.42882,4.102475381079701
Massachusetts,Middlesex,Wakefield,27.0,19.149097,1.409988157666129,42.504361,-71.064061,0.0
Massachusetts,Middlesex,Waltham,30124.0,33.008227,912.6209656762237,42.388921,-71.242268,2.0499986563634573
Massachusetts,Middlesex,Watertown,18363.0,,,,,0.42098090420456064
Massachusetts,Middlesex,Wayland,5614.0,38.965596,144.075814983043,42.360427,-71.361099,0.9769931678576302
Massachusetts,Middlesex,Westford,9879.0,78.332298,126.11656050228477,42.585541,-71.44025,4.808347373241715
Massachusetts,Middlesex,Weston,4369.0,43.56401,100.28920661803171,42.360502,-71.303433,4.976566645881693
Massachusetts,Middlesex,Winchester,8580.0,15.623829,549.1611563337002,42.452752,-71.144319,0.17960208037548622
Massachusetts,Middlesex,Woburn,20684.0,32.762645,631.3287587128573,42.488703,-71.154383,0.42224191112951265
Massachusetts,Nantucket,Nantucket,13378.0,119.637316,111.8212982979324,41.293392,-70.102164,1.0
Massachusetts,Norfolk,Avon,2174.0,11.114827,195.59458730216855,42.132461,-71.054013,3.3403061535583523
Massachusetts,Norfolk,Bellingham,7271.0,47.507316,153.05011127128293,42.076682,-71.47449,0.44248595448878936
Massachusetts,Norfolk,Brookline,33193.0,17.508152,1895.8597115218101,42.323853,-71.142003,1.5704890250128873
Massachusetts,Norfolk,Canton,10630.0,48.552283,218.9392412299129,42.175737,-71.125385,1.3049341065699158
Massachusetts,Norfolk,Cohasset,3847.0,25.338291,151.82555129704681,42.262428,-70.798883,0.862469056202973
Massachusetts,Norfolk,Dedham,11198.0,26.600181,420.97457908275135,42.246872,-71.179462,1.1332415646346328
Massachusetts,Norfolk,Dover,2252.0,39.098446,57.598197125277046,42.23416,-71.291167,0.47942094817823777
Massachusetts,Norfolk,Foxborough,8390.0,51.426194,163.1464307858365,42.061338,-71.245802,0.6445114192238167
Massachusetts,Norfolk,Franklin,13477.0,,,,,0.7880918708044249
Massachusetts,Norfolk,Holbrook,4763.0,18.79036,253.48104027810004,42.140346,-70.997861,2.5599311751820437
Massachusetts,Norfolk,Medfield,5002.0,37.318957,134.03375662401285,42.184599,-71.305307,0.49024852076041875
Massachusetts,Norfolk,Medway,5313.0,29.87513,177.84023031866306,42.156203,-71.430345,0.7560421382161121
Massachusetts,Norfolk,Millis,3739.0,31.164729,119.97537344220127,42.173103,-71.363756,2.0750938176223634
Massachusetts,Norfolk,Milton,10420.0,33.698169,309.21561346552687,42.241559,-71.082437,1.1787463090779522
Massachusetts,Norfolk,Needham,12880.0,31.851572,404.3756458864887,42.281593,-71.242414,0.15437995722454814
Massachusetts,Norfolk,Norfolk,3982.0,38.585031,103.20064275703186,42.116244,-71.329274,5.032003977166921
Massachusetts,Norfolk,Plainville,4758.0,28.458092,167.1932187161388,42.012838,-71.336188,1.2096749261461563
Massachusetts,Norfolk,Quincy,46106.0,42.922985,1074.156422252553,42.261006,-71.008988,0.6699686314138822
Massachusetts,Norfolk,Randolph,13176.0,,,,,0.7379944321437698
Massachusetts,Norfolk,Sharon,6857.0,60.697097,112.97080649507834,42.108463,-71.185182,3.6183343103063033
Massachusetts,Norfolk,Stoughton,12906.0,41.662918,309.7718695555602,42.119006,-71.10365,0.5225517244551723
Massachusetts,Norfolk,Walpole,10892.0,52.976308,205.60134164124838,42.146286,-71.255604,0.5085797627240997
Massachusetts,Norfolk,Westwood,6354.0,28.182747,225.45708549986273,42.219645,-71.216768,0.37148639095531816
Massachusetts,Norfolk,Weymouth,25620.0,,,,,0.425751589104346
Massachusetts,Norfolk,Wrentham,4959.0,56.219361,88.20804633478491,42.052671,-71.356858,0.62556404265477
Massachusetts,Plymouth,Abington,7416.0,25.795963,287.4868443562274,42.115764,-70.956597,0.7089046551200341
Massachusetts,Plymouth,Bridgewater,9965.0,,,,,0.5844644566828123
Massachusetts,Plymouth,Brockton,38787.0,55.252259,701.9984467965373,42.082543,-71.024638,0.718465156073492
Massachusetts,Plymouth,Carver,5716.0,96.62191,59.158424833456515,41.875179,-70.746715,3.534313303880167
Massachusetts,Plymouth,Duxbury,6983.0,61.393148,113.74233489378979,42.044407,-70.70606,2.128519946269879
Massachusetts,Plymouth,East Bridgewater,5672.0,44.64828,127.03736851677154,42.037116,-70.942178,0.6873880683706856
Massachusetts,Plymouth,Halifax,3414.0,41.372593,82.51839569253008,42.002634,-70.863706,2.726922841491172
Massachusetts,Plymouth,Hanover,6167.0,40.242022,153.2477667250418,42.122956,-70.85631,0.4623032845966671
Massachusetts,Plymouth,Hanson,4345.0,38.899028,111.69944914818952,42.05024,-70.867359,0.9677756884587899
Massachusetts,Plymouth,Kingston,6075.0,48.286878,125.81057735809716,41.987196,-70.741942,2.30295341472854
Massachusetts,Plymouth,Lakeville,459.0,76.656455,5.987754064546815,41.834384,-70.956826,0.0
Massachusetts,Plymouth,Marion,3177.0,36.589945,86.8271324266817,41.706839,-70.750958,0.9140549630600633
Massachusetts,Plymouth,Marshfield,12475.0,74.19788,168.13148839292984,42.115139,-70.710331,0.8800043145984026
Massachusetts,Plymouth,Mattapoisett,3942.0,44.899221,87.79662346480355,41.661363,-70.812024,0.0
Massachusetts,Plymouth,Norwell,4601.0,54.211132,84.87186727626349,42.164569,-70.818844,0.9870889202195651
Massachusetts,Plymouth,Pembroke,7798.0,56.424894,138.20141159680335,42.067804,-70.805713,2.5693159719430523
Massachusetts,Plymouth,Plymouth,31184.0,249.743164,124.86427856740055,41.894085,-70.61861,0.4427438340080956
Massachusetts,Plymouth,Plympton,1275.0,38.023287,33.532082589282716,41.9591,-70.802753,3.593093226917763
Massachusetts,Plymouth,Rochester,2498.0,86.945154,28.73075594299367,41.760864,-70.838956,3.6909607832501297
Massachusetts,Plymouth,Rockland,7888.0,25.97556,303.67006524594655,42.129251,-70.908736,0.10388842280080239
Massachusetts,Plymouth,Scituate,9000.0,44.582989,201.87071799963883,42.205062,-70.742978,1.452861555561358
Massachusetts,Plymouth,Wareham,14740.0,92.779618,158.8711003315405,41.76104,-70.701779,0.5803368125566923
Massachusetts,Plymouth,West Bridgewater,3573.0,39.691385,90.01953446572853,42.021617,-71.026717,0.5564110585818806
Massachusetts,Plymouth,Whitman,6380.0,17.962857,355.1773529121787,42.078974,-70.93939,0.7455379881355751
Massachusetts,Suffolk,Boston,279624.0,125.200664,2233.4066854469716,42.338551,-71.018253,1.0198440074906097
Massachusetts,Suffolk,Chelsea,15871.0,5.746368,2761.9184848586096,42.396824,-71.031348,0.20789567908759846
Massachusetts,Suffolk,Revere,22742.0,14.772907,1539.4397324778392,42.421005,-70.99036,1.6712158889894246
Massachusetts,Suffolk,Winthrop,8379.0,,,,,0.016330729114327126
Massachusetts,Worcester,Athol,5739.0,83.649111,68.60802142894262,42.575926,-72.229589,0.2186213434361192
Massachusetts,Worcester,Auburn,7806.0,40.109615,194.61667732288132,42.198867,-71.845722,1.746926500539837
Massachusetts,Worcester,Barre,2459.0,114.858654,21.40892230897987,42.418884,-72.112077,0.30080992193554695
Massachusetts,Worcester,Berlin,1404.0,33.597231,41.78915816008766,42.384929,-71.633889,7.046496506991532
Massachusetts,Worcester,Blackstone,3925.0,28.778366,136.38717361506906,42.039991,-71.532406,1.3892932253733994
Massachusetts,Worcester,Bolton,2083.0,51.659942,40.321377054585156,42.439933,-71.601885,4.061030680951002
Massachusetts,Worcester,Brookfield,1704.0,40.214973,42.372277609138266,42.180807,-72.107888,1.7673952473615926
Massachusetts,Worcester,Charlton,5682.0,109.245583,52.0112561438754,42.133935,-71.968025,0.7167838735838417
Massachusetts,Worcester,Clinton,7274.0,14.640558,496.83898660146696,42.411887,-71.690005,1.2215579578152416
Massachusetts,Worcester,Douglas,3910.0,94.395192,41.421601218841744,42.053072,-71.752241,0.385712514918816
Massachusetts,Worcester,Dudley,5020.0,53.955588,93.03948276868005,42.053778,-71.935075,0.3592159873659335
Massachusetts,Worcester,East Brookfield,1131.0,25.547239,44.270928846753264,42.209682,-72.040178,4.135681237028262
Massachusetts,Worcester,Fitchburg,19296.0,72.063644,267.76331210783627,42.601977,-71.81587,0.2535947850935533
Massachusetts,Worcester,Gardner,10104.0,57.15034,176.79684845269512,42.584206,-71.988737,0.031447209033187117
Massachusetts,Worcester,Grafton,8387.0,59.059793,142.00862505562796,42.209151,-71.683644,0.5983692459009151
Massachusetts,Worcester,Hardwick,1438.0,99.977094,14.38329463746966,42.353221,-72.217113,0.6419704790691424
Massachusetts,Worcester,Harvard,2326.0,68.481281,33.96548613043614,42.504256,-71.588513,4.662179023220154
Massachusetts,Worcester,Hopedale,2487.0,13.41766,185.35273661726413,42.123007,-71.531404,0.030883891148560084
Massachusetts,Worcester,Hubbardston,1939.0,106.347599,18.232663626002502,42.495111,-72.002339,1.9255903184273626
Massachusetts,Worcester,Lancaster,3071.0,71.143999,43.165973844118604,42.483569,-71.675585,0.45871386272440445
Massachusetts,Worcester,Leicester,4691.0,60.248051,77.86143986632862,42.238427,-71.91234,1.1001464466519255
Massachusetts,Worcester,Leominster,19582.0,74.650498,262.3157316378519,42.520876,-71.770611,0.5445144295181712
Massachusetts,Worcester,Lunenburg,5178.0,68.341386,75.76668111472014,42.582607,-71.720464,1.1055858924210378
Massachusetts,Worcester,Mendon,2565.0,46.013815,55.744128149339495,42.09387,-71.544519,2.6471582824421533
Massachusetts,Worcester,Milford,13183.0,38.20606,345.04997374762013,42.158692,-71.521419,0.6360845322998895
Massachusetts,Worcester,Millbury,6465.0,40.702072,158.83712259169508,42.192246,-71.777649,0.34315595816615196
Massachusetts,Worcester,Millville,1285.0,12.592203,102.047274809658,42.036642,-71.578779,1.9864316408232092
Massachusetts,Worcester,New Braintree,477.0,53.773155,8.870597233879991,42.326183,-72.133431,1.6176029881514171
Massachusetts,Worcester,North Brookfield,2296.0,55.085966,41.68030746705976,42.267564,-72.066876,1.0972053035471119
Massachusetts,Worcester,Northborough,6740.0,47.842598,140.87863706732648,42.323342,-71.646236,0.5664405697819684
Massachusetts,Worcester,Northbridge,7229.0,44.717917,161.65779814833505,42.128937,-71.655787,0.186233950366978
Massachusetts,Worcester,Oakham,928.0,53.925831,17.20882150151752,42.350862,-72.044248,2.4435840627326257
Massachusetts,Worcester,Oxford,6268.0,68.679052,91.26509201087983,42.12826,-71.8671,0.7006774110029995
Massachusetts,Worcester,Petersham,642.0,140.465049,4.570531990488253,42.459222,-72.216335,0.34257287113453105
Massachusetts,Worcester,Phillipston,909.0,62.803832,14.473639124440687,42.55595,-72.150895,2.1681293103417185
Massachusetts,Worcester,Royalston,692.0,108.239491,6.393230359887779,42.688972,-72.185327,1.9200648373789038
Massachusetts,Worcester,Rutland,3640.0,90.974489,40.01121677089057,42.388285,-71.969865,0.5351277113010481
Massachusetts,Worcester,Southborough,4302.0,36.285338,118.56028459759696,42.299625,-71.528427,0.5543236148802501
Massachusetts,Worcester,Southbridge,8274.0,,,,,0.050331033807566324
Massachusetts,Worcester,Spencer,5915.0,85.082963,69.52038094865125,42.247211,-71.991867,0.22240955874135038
Massachusetts,Worcester,Sturbridge,4854.0,96.42878,50.33766889926431,42.10481,-72.08774,1.8506389348003613
Massachusetts,Worcester,Sutton,4096.0,83.953111,48.78913897544547,42.132051,-71.750318,1.7978718990074882
Massachusetts,Worcester,Upton,3172.0,55.941902,56.70168311402784,42.176526,-71.603588,2.091384746126567
Massachusetts,Worcester,Uxbridge,6241.0,76.632229,81.44093002958326,42.061166,-71.643628,0.7410460761148923
Massachusetts,Worcester,Warren,2375.0,71.311785,33.304453113885735,42.199604,-72.200006,0.938054157104936
Massachusetts,Worcester,Webster,9178.0,32.005106,286.76674278160493,42.047075,-71.845805,0.019550743014697575
Massachusetts,Worcester,West Brookfield,1904.0,53.029583,35.90448750087286,42.256691,-72.158169,0.9948525523032796
Massachusetts,Worcester,Westborough,8610.0,53.354955,161.372078750699,42.268426,-71.613309,0.09400967213138955
Massachusetts,Worcester,Westminster,3554.0,91.79247,38.71777281949162,42.5546,-71.90544,3.498971056551695
Massachusetts,Worcester,Winchendon,4409.0,111.40956,39.57470077074176,42.66816,-72.055644,0.7961358013569146
Massachusetts,Worcester,Worcester,79881.0,96.762673,825.5352763973356,42.269478,-71.807783,1.5179236562904685
Rhode Island,Bristol,Barrington,6874.0,21.198328,324.2708575883909,41.733037,-71.319676,0.6412789718267735
Rhode Island,Bristol,Bristol,10470.0,25.352632,412.9748737724746,41.67573,-71.273331,0.44200995082177796
Rhode Island,Bristol,Warren,6031.0,15.949813,378.1235554297721,41.725138,-71.258805,2.377550018663363
Rhode Island,Kent,Coventry,15906.0,152.969594,103.98144875771848,41.698325,-71.662734,1.4529559264921736
Rhode Island,Kent,East Greenwich,6148.0,42.413289,144.95456836653247,41.637327,-71.501456,0.4654541406034832
Rhode Island,Kent,Warwick,40818.0,90.651872,450.2720032080529,41.703085,-71.42031,0.8287219892840376
Rhode Island,Kent,West Greenwich,2850.0,130.269418,21.877736492228745,41.628605,-71.658874,4.537150717193358
Rhode Island,Kent,West Warwick,14819.0,20.2846,730.5542135413071,41.679601,-71.521114,0.5270947617375233
Rhode Island,Newport,Jamestown,3341.0,24.469391,136.53793018387748,41.51973,-71.371076,0.2497956240896193
Rhode Island,Newport,Little Compton,2573.0,53.214256,48.35170485142177,41.502861,-71.165808,9.29459766438097
Rhode Island,Newport,Middletown,8376.0,32.891674,254.65411094613182,41.520152,-71.280198,0.6637552665190545
Rhode Island,Newport,Newport,15044.0,19.828477,758.7067831785567,41.476681,-71.319627,0.7034073946962016
Rhode Island,Newport,Portsmouth,9262.0,59.635472,155.31024890689218,41.59214,-71.283576,0.1679259063594166
Rhode Island,Newport,Tiverton,8216.0,75.254509,109.17618238662617,41.606983,-71.182634,0.5313325616589792
Rhode Island,Providence,Burrillville,2620.0,142.228409,18.42107366890394,41.970291,-71.69866,2.686650858626372
Rhode Island,Providence,Central Falls,7485.0,3.092443,2420.4164797863696,41.890064,-71.393481,0.0
Rhode Island,Providence,Cranston,35919.0,73.413574,489.2691915530499,41.769734,-71.485049,0.8161509282461845
Rhode Island,Providence,Cumberland,15465.0,68.60121,225.43334148187768,41.96746,-71.420572,0.8840264628343499
Rhode Island,Providence,East Providence,22299.0,34.406029,648.113154819465,41.800433,-71.359258,0.2912349355055545
Rhode Island,Providence,Foster,2045.0,131.446005,15.557718928011543,41.788784,-71.734934,7.776565495801216
Rhode Island,Providence,Glocester,4656.0,140.463699,33.14735432106199,41.894324,-71.686905,8.49423012665861
Rhode Island,Providence,Johnston,13621.0,60.806166,224.0068877225379,41.82744,-71.519879,1.2559942612704758
Rhode Island,Providence,Lincoln,10193.0,46.812461,217.7411693865016,41.915455,-71.449815,0.9845855106406182
Rhode Island,Providence,North Providence,16195.0,14.598075,1109.3928480296204,41.861587,-71.456879,0.8314444638038269
Rhode Island,Providence,North Smithfield,5902.0,61.89999,95.34734981378834,41.975186,-71.544069,1.740934693679168
Rhode Island,Providence,Pawtucket,33956.0,22.447898,1512.658334424007,41.874824,-71.373323,1.8920026678505713
Rhode Island,Providence,Providence,73959.0,47.670949,1551.4480317981502,41.823056,-71.418784,0.2364303347823746
Rhode Island,Providence,Scituate,4692.0,124.665549,37.63670105844559,41.811538,-71.63278,2.4517310799020624
Rhode Island,Providence,Smithfield,8939.0,67.938931,131.57404552038065,41.900945,-71.52889,1.2010259340519374
Rhode Island,Providence,Woonsocket,18986.0,20.061063,946.4104668830361,42.001708,-71.499947,0.5322456656641672
Rhode Island,Washington,Charlestown,5866.0,94.641259,61.9814239791548,41.371368,-71.680337,0.4999074388011411
Rhode Island,Washington,Exeter,3024.0,148.804442,20.321973990534502,41.569431,-71.627921,2.5941418053623178
Rhode Island,Washington,Hopkinton,3963.0,111.385175,35.57924113330162,41.479072,-71.757934,3.8843007952889224
Rhode Island,Washington,Narragansett,10664.5,35.911187,296.968741244894,41.398044,-71.486262,0.7365911294447377
Rhode Island,Washington,North Kingstown,13592.0,111.808792,121.56467981516158,41.571527,-71.449907,0.8232224456233376
Rhode Island,Washington,Richmond,3470.0,104.433008,33.227042545782076,41.494707,-71.669309,4.6278135266518845
Rhode Island,Washington,South Kingstown,14696.0,145.998461,100.65859529848058,41.410847,-71.547469,0.28037908164324493
Rhode Island,Washington,Westerly,14540.0,76.323893,190.50390943763836,41.323428,-71.802458,0.3040780323700057
